{
    "type": "FeatureCollection",
    "crs": {
      "type": "name",
      "properties": { "name": "urn:ogc:def:crs:OGC:1.3:CRS84" }
    },
    "features": [
      {
        "type": "Feature",
        "properties": {
          "PARK_ID": 500,
          "name": "Spark Motorcycles Bay Area",
          "address": "1500 C, Macdonald Ave, Richmond, CA",
          "phone": "(415) 619-0009"
        },
        "geometry": {
          "type": "Point",
          "coordinates": [37.93566, -122.35427]
        }
      },
      {
        "type": "Feature",
        "properties": {
          "PARK_ID": 501,
          "name": "Rockridge Two Wheels",
          "address": "6432 Shattuck Ave, Oakland, CA",
          "phone": "(510) 594-0789"
        },
        "geometry": {
          "type": "Point",
          "coordinates": [37.85049, -122.26556]
        }
      },
      {
        "type": "Feature",
        "properties": {
          "PARK_ID": 502,
          "name": "O'Hanlon Motorcycles",
          "address": "162 Clara St, San Francisco, CA",
          "phone": "(415) 777-3845"
        },
        "geometry": {
          "type": "Point",
          "coordinates": [37.78045, -122.40159]
        }
      },
      {
        "type": "Feature",
        "properties": {
          "PARK_ID": 503,
          "name": "Moto Garage",
          "address": "112 Sagamore St, San Francisco, CA",
          "phone": "(415) 337-1448"
        },
        "geometry": {
          "type": "Point",
          "coordinates": [37.71184, -122.45659]
        }
      },
      {
        "type": "Feature",
        "properties": {
          "PARK_ID": 504,
          "name": "Grumpy's Motorcycles",
          "address": "797 San Bruno Ave, San Bruno, CA",
          "phone": "(650) 873-8300"
        },
        "geometry": {
          "type": "Point",
          "coordinates": [37.63137, -122.40568]
        }
      },
      {
        "type": "Feature",
        "properties": {
          "PARK_ID": 505,
          "name": "Motorfast Vintage and Sport Motorcycle Repair",
          "address": "11 S Railroad Ave, San Mateo, CA",
          "phone": "(650) 267-1933"
        },
        "geometry": {
          "type": "Point",
          "coordinates": [37.56915, -122.32424]
        }
      },
      {
        "type": "Feature",
        "properties": {
          "PARK_ID": 507,
          "name": "RC Cycles",
          "address": "30872 Huntwood Ave #1, Hayward, CA",
          "phone": "(510) 471-9755"
        },
        "geometry": {
          "type": "Point",
          "coordinates": [37.61515, -122.05418]
        }
      },
      {
        "type": "Feature",
        "properties": {
          "PARK_ID": 508,
          "name": "Meteor Motorbikes",
          "address": "2600 Magnolia St #190, Oakland, CA",
          "phone": "(510) 545-3738"
        },
        "geometry": {
          "type": "Point",
          "coordinates": [37.81946, -122.28365]
        }
      },
      {
        "type": "Feature",
        "properties": {
          "PARK_ID": 509,
          "name": "Performance Motorcycle",
          "address": "741 Gilman St, Berkeley, CA",
          "phone": "(510) 525-6797"
        },
        "geometry": {
          "type": "Point",
          "coordinates": [37.87961, -122.30273]
        }
      },
      {
        "type": "Feature",
        "properties": {
          "PARK_ID": 510,
          "name": "J & TV-Twin",
          "address": "1026 16th Ave, Redwood City, CA",
          "phone": "(650) 000-0000"
        },
        "geometry": {
          "type": "Point",
          "coordinates": [37.48244, -122.18715]
        }
      }
    ]
}
      
